[
  {
    "_id": "65dc718934d18479d71de6e3",
    "refuge_id": 15965,
    "name": "Liverpool Guild Sphinx Bar",
    "street": "160 Mount Pleasant",
    "city": "Liverpool",
    "country": "GB",
    "unisex": true,
    "changing_table": false,
    "accessible": true,
    "comment": "Should be able to use regardless, many students go in and out without paying for anything",
    "latitude": 53.4050214,
    "longitude": -2.9658354,
    "distance": 1.075100618056547,
    "votes": 0,
    "comment_count": 0
  },
  {
    "_id": "65dc718934d18479d71de6e4",
    "refuge_id": 16078,
    "name": "Liverpool Guild",
    "street": "160 Mount Pleasant",
    "city": "Liverpool",
    "country": "GB",
    "unisex": true,
    "changing_table": false,
    "accessible": true,
    "comment": "You do not have to be a paying customer to use these toilets - anybody can wander in and out. The Guild is open from 7am til 11pm every normal day.",
    "latitude": 53.4050214,
    "longitude": -2.9658354,
    "distance": 1.075100618056547,
    "votes": 0,
    "comment_count": 0
  },
  {
    "_id": "65dc718934d18479d71de6e6",
    "refuge_id": 21052,
    "name": "Starbucks",
    "street": "Myrtle Street",
    "city": "Liverpool",
    "country": "US",
    "unisex": true,
    "changing_table": false,
    "accessible": true,
    "comment": "",
    "latitude": 53.4008954,
    "longitude": -2.9653891,
    "distance": 1.1672571456743648,
    "votes": 0,
    "comment_count": 0
  },
  {
    "_id": "65dc718934d18479d71de6e7",
    "refuge_id": 21050,
    "name": "Caffe Nero",
    "street": "Myrtle Street",
    "city": "Liverpool",
    "country": "GB",
    "unisex": true,
    "changing_table": false,
    "accessible": true,
    "comment": "Easy to sneak in unnoticed and friendly staff",
    "latitude": 53.4008954,
    "longitude": -2.9653891,
    "distance": 1.1672571456743648,
    "votes": 0,
    "comment_count": 0
  },
  {
    "_id": "65dc718934d18479d71de6e8",
    "refuge_id": 21051,
    "name": "Caffe Nero",
    "street": "Myrtle Street",
    "city": "Liverpool",
    "country": "GB",
    "unisex": true,
    "changing_table": false,
    "accessible": true,
    "comment": "Easy to walk in unnoticed and friendly staff ",
    "latitude": 53.4008954,
    "longitude": -2.9653891,
    "distance": 1.1672571456743648,
    "votes": 0,
    "comment_count": 0
  },
  {
    "_id": "65dc718934d18479d71de732",
    "refuge_id": 25538,
    "name": "The Clink Restaurant ",
    "street": "1 Knox Rd",
    "city": "Cardiff",
    "country": "GB",
    "unisex": true,
    "changing_table": false,
    "accessible": true,
    "comment": "For customers only. Possibly you could ask to use it if not a customer.",
    "latitude": 51.482247,
    "longitude": -3.1680305,
    "distance": 0.48206518579385665,
    "votes": 0,
    "comment_count": 0
  },
  {
    "_id": "65dc718934d18479d71de733",
    "refuge_id": 5006,
    "name": "Tucker Cafe",
    "street": "23 Salisbury Rd CF24 4AA",
    "city": "Cardiff",
    "country": "Wales",
    "unisex": false,
    "changing_table": false,
    "accessible": true,
    "comment": "",
    "latitude": 51.4878759,
    "longitude": -3.1738463,
    "distance": 0.4875457174363569,
    "votes": 0,
    "comment_count": 0
  },
  {
    "_id": "65dc718934d18479d71de734",
    "refuge_id": 28269,
    "name": "Atrium",
    "street": "Adam Street",
    "city": "Cardiff",
    "country": "GB",
    "unisex": true,
    "changing_table": false,
    "accessible": true,
    "comment": "",
    "latitude": 51.4794535,
    "longitude": -3.1679463,
    "distance": 0.5072949301336229,
    "votes": 0,
    "comment_count": 0
  },
  {
    "_id": "65dc718934d18479d71de735",
    "refuge_id": 55208,
    "name": "Arts and social studies library",
    "street": "Colum Dr, Cardiff CF10 3EU",
    "city": "Cardiff",
    "country": "GB",
    "unisex": true,
    "changing_table": false,
    "accessible": true,
    "comment": "You do not need a student ID to get into the library during business hours, the barriers open automatically ",
    "latitude": 51.4916772,
    "longitude": -3.184329,
    "distance": 0.726890707251782,
    "votes": 0,
    "comment_count": 0
  },
  {
    "_id": "65dc718934d18479d71de736",
    "refuge_id": 4749,
    "name": "Milgi's Cafe",
    "street": "213 City Road CF24 3JD",
    "city": "Cardiff",
    "country": "Wales",
    "unisex": true,
    "changing_table": false,
    "accessible": false,
    "comment": "",
    "latitude": 51.49176689999999,
    "longitude": -3.1713967,
    "distance": 0.7750453913323818,
    "votes": 0,
    "comment_count": 0
  },
  {
    "_id": "65dc718934d18479d71de796",
    "refuge_id": 15775,
    "name": "The Dock Cafe, ",
    "street": "2K Queenâ€™s Road, Belfast BT3 9DT, United Kingdom",
    "city": "Belfast",
    "country": "United Kingdom",
    "unisex": true,
    "changing_table": false,
    "accessible": true,
    "comment": "",
    "latitude": 54.6044104,
    "longitude": -5.9111842,
    "distance": 0.9408658540905676,
    "votes": 0,
    "comment_count": 0
  },
  {
    "_id": "65dc718934d18479d71de797",
    "refuge_id": 66728,
    "name": "Euro Spar Shankill Road",
    "street": "Shankill Road",
    "city": "Belfast",
    "country": "GB",
    "unisex": true,
    "changing_table": false,
    "accessible": true,
    "comment": "Technically have to be a paying customer, but staff don't take issue. There are men's, women's and an accessible restroom",
    "latitude": 54.6041683,
    "longitude": -5.950658,
    "distance": 0.9799664369469582,
    "votes": 0,
    "comment_count": 0
  },
  {
    "_id": "65dc718934d18479d71de798",
    "refuge_id": 47958,
    "name": "387",
    "street": "Ormeau Road",
    "city": "Belfast",
    "country": "GB",
    "unisex": false,
    "changing_table": false,
    "accessible": false,
    "comment": "Nice little vegan cafe run by lovely people.",
    "latitude": 54.5790894,
    "longitude": -5.9197061,
    "distance": 1.2668792983893928,
    "votes": 0,
    "comment_count": 0
  },
  {
    "_id": "65dc718934d18479d71de799",
    "refuge_id": 66087,
    "name": "Lisburn Road Library",
    "street": "440 Lisburn Road",
    "city": "Belfast",
    "country": "GB",
    "unisex": true,
    "changing_table": true,
    "accessible": true,
    "comment": "",
    "latitude": 54.57048229999999,
    "longitude": -5.9622525,
    "distance": 2.2030459671483924,
    "votes": 0,
    "comment_count": 0
  },
  {
    "_id": "65dc718934d18479d71de79a",
    "refuge_id": 6055,
    "name": "21 Social",
    "street": "1 Hill St",
    "city": "Belfast",
    "country": "United Kingdom",
    "unisex": true,
    "changing_table": false,
    "accessible": true,
    "comment": "",
    "latitude": 54.6107606,
    "longitude": -5.986358,
    "distance": 2.457652139255701,
    "votes": 0,
    "comment_count": 0
  },
  {
    "_id": "65dc718934d18479d71de7ac",
    "refuge_id": 33675,
    "name": "MEGAbytes",
    "street": "169 Howard St, Glasgow G1 4HF",
    "city": "Glasgow",
    "country": "GB",
    "unisex": true,
    "changing_table": false,
    "accessible": true,
    "comment": "",
    "latitude": 55.8557347,
    "longitude": -4.251168499999999,
    "distance": 0.3765080024046219,
    "votes": 0,
    "comment_count": 0
  },
  {
    "_id": "65dc718934d18479d71de7ae",
    "refuge_id": 51625,
    "name": "Buff Club",
    "street": "142 Bath Lane",
    "city": "Glasgow",
    "country": "",
    "unisex": true,
    "changing_table": false,
    "accessible": false,
    "comment": "",
    "latitude": 55.86408180000001,
    "longitude": -4.261078299999999,
    "distance": 0.4688580446125162,
    "votes": 0,
    "comment_count": 0
  },
  {
    "_id": "65dc718934d18479d71de7b0",
    "refuge_id": 39837,
    "name": "Bar Bloc",
    "street": "Bath Street",
    "city": "Glasgow",
    "country": "GB",
    "unisex": true,
    "changing_table": false,
    "accessible": false,
    "comment": "",
    "latitude": 55.8644792,
    "longitude": -4.261794099999999,
    "distance": 0.5059007183877027,
    "votes": 0,
    "comment_count": 0
  },
  {
    "_id": "65dc718934d18479d71de7b2",
    "refuge_id": 4533,
    "name": "CCA",
    "street": "350 Sauchiehall Street",
    "city": "Glasgow",
    "country": "UK",
    "unisex": true,
    "changing_table": false,
    "accessible": true,
    "comment": "",
    "latitude": 55.86603239999999,
    "longitude": -4.2661907,
    "distance": 0.7067367763158215,
    "votes": 0,
    "comment_count": 0
  },
  {
    "_id": "65dc718934d18479d71de7b3",
    "refuge_id": 27529,
    "name": "Glasgow Disability benefits centre",
    "street": "Argyle Street",
    "city": "Glasgow",
    "country": "GB",
    "unisex": true,
    "changing_table": false,
    "accessible": true,
    "comment": "Available for patients/claiments and family who have an appointment.",
    "latitude": 55.8615095,
    "longitude": -4.2737487,
    "distance": 0.9146428725766511,
    "votes": 0,
    "comment_count": 0
  }
]
